{
  "chokepoints": [
    {
      "name": "Strait of Hormuz",
      "latitude": 26.5667,
      "longitude": 56.25,
      "trade_volume_pct_global_oil": 0.21,
      "controlling_countries": ["IRN", "OMN"],
      "risk_level": "high"
    },
    {
      "name": "Strait of Malacca",
      "latitude": 2.5,
      "longitude": 101.0,
      "trade_volume_pct_global_trade": 0.25,
      "controlling_countries": ["MYS", "IDN", "SGP"],
      "risk_level": "medium"
    },
    {
      "name": "Suez Canal",
      "latitude": 30.4583,
      "longitude": 32.35,
      "trade_volume_pct_global_trade": 0.12,
      "controlling_countries": ["EGY"],
      "risk_level": "high"
    },
    {
      "name": "Panama Canal",
      "latitude": 9.08,
      "longitude": -79.68,
      "trade_volume_pct_global_trade": 0.05,
      "controlling_countries": ["PAN"],
      "risk_level": "medium"
    },
    {
      "name": "Bab el-Mandeb",
      "latitude": 12.5833,
      "longitude": 43.3333,
      "trade_volume_pct_global_oil": 0.09,
      "controlling_countries": ["YEM", "DJI", "ERI"],
      "risk_level": "critical"
    },
    {
      "name": "Turkish Straits (Bosphorus + Dardanelles)",
      "latitude": 41.12,
      "longitude": 29.05,
      "trade_volume_pct_global_trade": 0.03,
      "controlling_countries": ["TUR"],
      "risk_level": "low"
    },
    {
      "name": "GIUK Gap",
      "latitude": 63.0,
      "longitude": -15.0,
      "trade_volume_pct_global_trade": 0.02,
      "controlling_countries": ["GBR", "ISL", "NOR"],
      "risk_level": "low"
    },
    {
      "name": "Taiwan Strait",
      "latitude": 24.0,
      "longitude": 119.5,
      "trade_volume_pct_global_trade": 0.08,
      "controlling_countries": ["TWN", "CHN"],
      "risk_level": "high"
    },
    {
      "name": "Cape of Good Hope",
      "latitude": -34.3568,
      "longitude": 18.4740,
      "trade_volume_pct_global_trade": 0.09,
      "controlling_countries": ["ZAF"],
      "risk_level": "low"
    }
  ]
}
